timestamp_us,yaw_err,pitch_err,roll_err,curr_yaw,curr_pitch,curr_roll,target_yaw,target_pitch,target_roll,att_0,att_1,att_2,U1,U2,U3,U4,n0,n1,n2,n3
27627646485,-2.04592e-05,0.00813197,0.00229257,2.04592e-05,-0.000546402,-0.00157811,0,0.00758557,0.000714454,0.00803543,0.0284659,-2.04695e-05,3.57677,0.000672871,0.00238368,-1.71407e-06,0.895384,0.89453,0.893001,0.893857
27627654307,-9.60011e-06,0.00794779,0.00392195,9.60011e-06,-0.000350449,-0.00319357,0,0.00759735,0.000728375,0.0137385,0.0278159,-9.59468e-06,3.57677,0.00115044,0.00232925,-8.0344e-07,0.895357,0.894768,0.893028,0.893617
27627662454,-1.41901e-05,0.00745673,0.00244083,1.41901e-05,0.000152488,-0.00169842,0,0.00760922,0.000742408,0.00853206,0.0260949,-1.41924e-05,3.57677,0.000714458,0.00218514,-1.18844e-06,0.895284,0.894549,0.893099,0.893835
27627670348,-1.83343e-05,0.00811874,0.00384407,1.83343e-05,-0.000497926,-0.00308794,0,0.00762082,0.000756123,0.0134643,0.0284203,-1.83364e-05,3.57677,0.00112748,0.00237986,-1.53545e-06,0.895381,0.894755,0.893001,0.893628
27627678360,-2.29585e-05,0.00781073,0.00233676,2.29585e-05,-0.000178113,-0.00156669,0,0.00763262,0.000770069,0.00816763,0.0273352,-2.29608e-05,3.57676,0.000683942,0.002289,-1.92269e-06,0.895335,0.894533,0.893046,0.893849
27627686268,-2.65908e-05,0.00814849,0.00379165,2.65908e-05,-0.000555825,-0.00304377,0,0.00759267,0.000747883,0.0132815,0.0285225,-2.65926e-05,3.57677,0.00111217,0.00238842,-2.22681e-06,0.895386,0.894749,0.892998,0.893637
27627694275,-1.5431e-05,0.00785556,0.00540627,1.5431e-05,-0.000252259,-0.00464522,0,0.0076033,0.000761052,0.0189336,0.0274923,-1.54254e-05,3.57677,0.00158546,0.00230215,-1.29169e-06,0.895343,0.894985,0.893041,0.8934
27627702461,-2.02613e-05,0.00740352,0.00390992,2.02613e-05,0.000210277,-0.00313587,0,0.0076138,0.000774049,0.0136738,0.025909,-2.02637e-05,3.57677,0.00114501,0.00216957,-1.69684e-06,0.895276,0.894764,0.893106,0.893619
27627710244,-2.55547e-05,0.00857253,0.00494463,2.55547e-05,-0.000948299,-0.00415766,0,0.00762423,0.000786966,0.0173136,0.0300122,-2.55574e-05,3.57676,0.00144981,0.00251317,-2.14012e-06,0.895447,0.894916,0.892934,0.893467
27627810042,-2.89224e-05,0.00854305,0.00364326,2.89224e-05,-0.000787717,-0.00269392,0,0.00775533,0.000949338,0.0127408,0.0298995,-2.89241e-05,3.57674,0.00106689,0.00250373,-2.42205e-06,0.895436,0.894718,0.892932,0.893651
27627817836,-3.31081e-05,0.00875903,0.00517109,3.31081e-05,-0.000993416,-0.00420902,0,0.00776561,0.00096207,0.0181098,0.0306581,-3.31102e-05,3.57674,0.00151648,0.00256725,-2.77259e-06,0.895467,0.894943,0.892899,0.893426
27627825863,-2.1639e-05,0.0079881,0.00663748,2.1639e-05,-0.000211927,-0.00566233,0,0.00777617,0.00097515,0.0232417,0.0279527,-2.16332e-05,3.57673,0.00194622,0.0023407,-1.81153e-06,0.895353,0.895157,0.893012,0.893211
27627834036,-2.65902e-05,0.00755716,0.00513357,2.65902e-05,0.000229757,-0.00414512,0,0.00778691,0.000988455,0.0179565,0.0264468,-2.65927e-05,3.57673,0.00150364,0.00221461,-2.22682e-06,0.895289,0.894935,0.893075,0.893431
27627841938,-3.30503e-05,0.00914766,0.00525714,3.30503e-05,-0.00135028,-0.00425572,0,0.00779739,0.00100143,0.0184008,0.0320283,-3.30536e-05,3.57673,0.00154085,0.00268199,-2.76784e-06,0.895522,0.894953,0.89284,0.893412
27627849857,-3.57601e-05,0.00894732,0.00381409,3.57601e-05,-0.00113941,-0.00279963,0,0.00780791,0.00101446,0.0133387,0.0313141,-3.57615e-05,3.57673,0.00111696,0.00262218,-2.9946e-06,0.895492,0.894741,0.89287,0.893624
27627858131,-5.04538e-05,0.00975402,0.00511106,5.04538e-05,-0.00193533,-0.00408325,0,0.00781869,0.00102781,0.017898,0.0341449,-5.04611e-05,3.57672,0.00149875,0.00285922,-4.22552e-06,0.89561,0.894931,0.89275,0.893433
27627866033,-6.06039e-05,0.00782323,0.00483407,6.06039e-05,-0.000226244,-0.00415761,0,0.00759698,0.000676461,0.0169198,0.0273689,-6.0609e-05,3.57677,0.00141683,0.00229182,-5.07528e-06,0.895337,0.894902,0.893046,0.893486
27627936225,-5.83148e-05,0.00716898,0.00659597,5.83148e-05,0.00046659,-0.00588921,0,0.00763557,0.000706765,0.0230985,0.0250864,-5.83137e-05,3.57676,0.00193422,0.00210069,-4.88308e-06,0.89524,0.895159,0.893139,0.893225
27627944122,-5.85798e-05,0.00577451,0.00685045,5.85798e-05,0.00186537,-0.0061403,0,0.00763988,0.000710149,0.0239784,0.0202006,-5.858e-05,3.57676,0.0020079,0.00169156,-4.90537e-06,0.895035,0.895196,0.893344,0.893188
27627952120,-6.3563e-05,0.00758185,0.00655317,6.3563e-05,6.2434e-05,-0.00583957,0,0.00764429,0.000713608,0.0229339,0.0265496,-6.35655e-05,3.57676,0.00192044,0.00222321,-5.32285e-06,0.895301,0.895152,0.893078,0.893232
27627960094,-6.65611e-05,0.00912156,0.0059593,6.65611e-05,-0.00147288,-0.00524224,0,0.00764868,0.000717057,0.0208532,0.0319366,-6.65626e-05,3.57676,0.00174621,0.00267431,-5.57383e-06,0.895526,0.895065,0.892852,0.893319
27627967959,-6.70561e-05,0.0101633,0.00476703,6.70561e-05,-0.00251023,-0.00404654,0,0.00765305,0.000720488,0.0166759,0.035579,-6.70563e-05,3.57676,0.00139641,0.00297931,-5.61517e-06,0.895678,0.89489,0.892699,0.893493
27627976005,-6.47235e-05,0.0092977,0.00340646,6.47235e-05,-0.00164019,-0.00268246,0,0.00765751,0.000723991,0.0119127,0.0325356,-6.47223e-05,3.57676,0.000997547,0.00272447,-5.41972e-06,0.895551,0.89469,0.892826,0.893692
27627983942,-6.29162e-05,0.00809568,0.00305193,6.29162e-05,-4.65802e-05,-0.0023634,0,0.0080491,0.000688528,0.0106794,0.0283233,-6.29152e-05,3.57669,0.000894276,0.00237174,-5.2684e-06,0.895357,0.89462,0.892985,0.893726
27627991975,-6.06891e-05,0.00650739,0.00322536,6.06891e-05,0.00155916,-0.00253462,0,0.00806655,0.000690746,0.01129,0.0227642,-6.06879e-05,3.57668,0.000945404,0.00190623,-5.08189e-06,0.895123,0.894645,0.893217,0.8937
27627999989,-5.72777e-05,0.00498327,0.00368253,5.72777e-05,0.00310077,-0.00298956,0,0.00808403,0.000692969,0.0128921,0.0174303,-5.7276e-05,3.57668,0.00107956,0.00145958,-4.79618e-06,0.894899,0.894711,0.893439,0.893632
27628007989,-6.08277e-05,0.00653135,0.00322811,6.08277e-05,0.00156995,-0.00253295,0,0.0081013,0.000695165,0.0112951,0.0228708,-6.08295e-05,3.57668,0.000945829,0.00191516,-5.09374e-06,0.895126,0.894644,0.893211,0.893698
27628015985,-6.40542e-05,0.00797647,0.00251572,6.40542e-05,0.000142328,-0.00181833,0,0.0081188,0.000697389,0.00879983,0.027928,-6.40558e-05,3.57667,0.00073688,0.00233864,-5.36391e-06,0.895337,0.894538,0.892998,0.893802
27628024032,-6.62565e-05,0.00921641,0.00149082,6.62565e-05,-0.00108006,-0.000791196,0,0.00813635,0.000699619,0.00521041,0.0322663,-6.62576e-05,3.57667,0.00043631,0.00270192,-5.54828e-06,0.895517,0.894387,0.892815,0.893951
27628032309,-6.40709e-05,0.00793709,0.0024475,6.40709e-05,0.000216888,-0.00174564,0,0.00815397,0.00070186,0.00857317,0.0277704,-6.40699e-05,3.57667,0.000717901,0.00232544,-5.36509e-06,0.895328,0.894527,0.893003,0.893809
27628040256,-6.6342e-05,0.00900871,0.00125318,6.6342e-05,-0.000837196,-0.000549088,0,0.00817152,0.00070409,0.00437745,0.0315381,-6.63432e-05,3.57666,0.000366559,0.00264094,-5.55545e-06,0.895485,0.894351,0.892844,0.893984
27628100969,-6.39897e-05,0.00793412,0.0023386,6.39897e-05,0.000369536,-0.00161771,0,0.00830365,0.000720888,0.00819285,0.0277607,-6.39885e-05,3.57664,0.000686053,0.00232462,-5.35828e-06,0.895321,0.894504,0.892996,0.893818
27628108673,-6.64476e-05,0.00895761,0.00110443,6.64476e-05,-0.000637111,-0.000381398,0,0.0083205,0.00072303,0.00385653,0.0313589,-6.64488e-05,3.57664,0.000322939,0.00262594,-5.56429e-06,0.89547,0.894322,0.892844,0.893999
27628116688,-6.39921e-05,0.00789679,0.00230442,6.39921e-05,0.000440933,-0.0015792,0,0.00833773,0.00072522,0.00807415,0.027631,-6.39909e-05,3.57663,0.000676114,0.00231376,-5.35847e-06,0.895314,0.894497,0.893,0.893821
27628124613,-6.65307e-05,0.00895454,0.0011008,6.65307e-05,-0.000599445,-0.000373375,0,0.00835509,0.000727428,0.00384407,0.0313484,-6.6532e-05,3.57663,0.000321895,0.00262506,-5.57126e-06,0.895468,0.894319,0.892843,0.893998
27628132510,-6.40569e-05,0.00791949,0.00232211,6.40569e-05,0.00045303,-0.00159247,0,0.00837252,0.000729644,0.00813624,0.0277106,-6.40556e-05,3.57662,0.000681313,0.00232043,-5.36389e-06,0.895315,0.894498,0.892995,0.893817
27628140639,-6.66021e-05,0.00900554,0.00114576,6.66021e-05,-0.000615506,-0.000413891,0,0.00839004,0.000731871,0.00400162,0.0315272,-6.66034e-05,3.57662,0.000335088,0.00264002,-5.57724e-06,0.895474,0.894324,0.892834,0.893989
27628148576,-6.4123e-05,0.00794536,0.00234338,6.4123e-05,0.000462036,-0.0016093,0,0.00840739,0.000734077,0.0082105,0.0278009,-6.41217e-05,3.57662,0.000687531,0.002328,-5.36943e-06,0.895317,0.8945,0.892989,0.893812
27628156604,-6.66786e-05,0.00851102,0.000766063,6.66786e-05,-0.000606506,-0.000430581,0,0.00790451,0.000335482,0.00267267,0.0297963,-6.66798e-05,3.57672,0.000223805,0.00249509,-5.58364e-06,0.895426,0.894293,0.892931,0.894069
27628164697,-6.41732e-05,0.00742387,0.00194326,6.41732e-05,0.000484159,-0.00161648,0,0.00790803,0.000326781,0.00681001,0.0259756,-6.41719e-05,3.57672,0.000570257,0.00217515,-5.37363e-06,0.895266,0.894466,0.893091,0.893896
27628172517,-6.67568e-05,0.00849508,0.000753475,6.67568e-05,-0.000583685,-0.000435033,0,0.00791139,0.000318442,0.0026286,0.0297405,-6.67581e-05,3.57672,0.000220114,0.00249041,-5.59019e-06,0.895423,0.894291,0.892933,0.894071
27628180503,-6.42198e-05,0.00740466,0.00192925,6.42198e-05,0.000510184,-0.00161937,0,0.00791485,0.000309878,0.00676096,0.0259084,-6.42185e-05,3.57672,0.00056615,0.00216952,-5.37754e-06,0.895263,0.894464,0.893093,0.893898
27628188579,-6.68328e-05,0.00847623,0.0007406,6.68328e-05,-0.000557929,-0.000439283,0,0.0079183,0.000301316,0.00258354,0.0296746,-6.68341e-05,3.57672,0.000216341,0.00248489,-5.59656e-06,0.89542,0.894289,0.892935,0.894072
27628196545,-6.42676e-05,0.00738669,0.00191544,6.42676e-05,0.000535092,-0.00162274,0,0.00792178,0.000292704,0.00671262,0.0258455,-6.42663e-05,3.57672,0.000562102,0.00216425,-5.38153e-06,0.89526,0.894461,0.893096,0.893899
27628261611,-6.6908e-05,0.00848335,0.000667692,6.6908e-05,-0.000533479,-0.000444598,0,0.00794987,0.000223094,0.00232838,0.0296995,-6.69093e-05,3.57671,0.000194974,0.00248698,-5.60286e-06,0.89542,0.894277,0.892933,0.894082
27628269497,-6.43163e-05,0.0073946,0.00184176,6.43163e-05,0.000558679,-0.00162711,0,0.00795328,0.000214651,0.00645474,0.0258732,-6.4315e-05,3.57671,0.000540508,0.00216657,-5.38561e-06,0.89526,0.894449,0.893093,0.893909
27628277728,-6.69841e-05,0.00846697,0.000655363,6.69841e-05,-0.000510209,-0.000449342,0,0.00795676,0.00020602,0.00228523,0.0296421,-6.69855e-05,3.57671,0.000191361,0.00248218,-5.60923e-06,0.895417,0.894275,0.892935,0.894083
27628285657,-6.43651e-05,0.00737855,0.00182922,6.43651e-05,0.000581714,-0.00163188,0,0.00796026,0.000197337,0.00641084,0.025817,-6.43638e-05,3.57671,0.000536831,0.00216187,-5.3897e-06,0.895257,0.894447,0.893095,0.89391
27628293592,-6.70614e-05,0.00845121,0.000641748,6.70614e-05,-0.000487509,-0.00045292,0,0.0079637,0.000188828,0.00223757,0.029587,-6.70628e-05,3.57671,0.00018737,0.00247756,-5.61571e-06,0.895415,0.894272,0.892937,0.894085
27628301730,-6.44139e-05,0.00736271,0.00181682,6.44139e-05,0.0006045,-0.00163669,0,0.00796721,0.000180127,0.00636745,0.0257616,-6.44126e-05,3.57671,0.000533198,0.00215722,-5.39378e-06,0.895254,0.894445,0.893097,0.893912
27628309700,-6.71389e-05,0.00877626,0.000646424,6.71389e-05,-0.000464795,-0.000455953,0,0.00831147,0.000190471,0.00225392,0.0307247,-6.71403e-05,3.57664,0.000188739,0.00257283,-5.6222e-06,0.895446,0.894256,0.892873,0.894068
27628317636,-6.44625e-05,0.00769774,0.0018241,6.44625e-05,0.000627004,-0.00164168,0,0.00832474,0.000182427,0.00639296,0.0269342,-6.44612e-05,3.57664,0.000535334,0.00225542,-5.39785e-06,0.895286,0.894429,0.893031,0.893894
27628325632,-6.72139e-05,0.00877866,0.000634465,6.72139e-05,-0.00044073,-0.000460027,0,0.00833793,0.000174438,0.00221206,0.030733,-6.72153e-05,3.57664,0.000185234,0.00257353,-5.62848e-06,0.895445,0.894253,0.892871,0.894068
27628333634,-6.45086e-05,0.00769684,0.00180648,6.45086e-05,0.000654552,-0.0016402,0,0.00835139,0.000166277,0.00633124,0.026931,-6.45072e-05,3.57664,0.000530166,0.00225515,-5.40171e-06,0.895285,0.894425,0.89303,0.893895
27628341702,-6.72862e-05,0.00878522,0.000626292,6.72862e-05,-0.000420446,-0.000468121,0,0.00836477,0.00015817,0.00218352,0.030756,-6.72876e-05,3.57663,0.000182844,0.00257545,-5.63453e-06,0.895444,0.894251,0.892869,0.894068
27628405308,-6.45558e-05,0.00779335,0.00174029,6.45558e-05,0.000676846,-0.00164602,0,0.0084702,9.42733e-05,0.00609955,0.0272688,-6.45544e-05,3.57661,0.000510765,0.00228343,-5.40566e-06,0.895293,0.89441,0.89301,0.893899
27628413230,-6.73621e-05,0.00888002,0.000557213,6.73621e-05,-0.000396779,-0.000470847,0,0.00848325,8.63659e-05,0.00194173,0.0310879,-6.73635e-05,3.57661,0.000162596,0.00260324,-5.64089e-06,0.895453,0.894235,0.892849,0.894072
27628421178,-6.46031e-05,0.00779785,0.00173057,6.46031e-05,0.000698533,-0.00165217,0,0.00849639,7.84016e-05,0.00606557,0.0272845,-6.46018e-05,3.57661,0.000507919,0.00228476,-5.40963e-06,0.895293,0.894407,0.893008,0.893899
27628429106,-6.74376e-05,0.0088828,0.000543722,6.74376e-05,-0.000373035,-0.000473431,0,0.00850977,7.02907e-05,0.00189448,0.0310976,-6.7439e-05,3.5766,0.00015864,0.00260405,-5.64722e-06,0.895452,0.894232,0.892848,0.894073
27628437169,-6.46504e-05,0.00780354,0.00172112,6.46504e-05,0.000719599,-0.00165894,0,0.00852314,6.21841e-05,0.00603252,0.0273045,-6.4649e-05,3.5766,0.000505151,0.00228642,-5.41358e-06,0.895292,0.894404,0.893006,0.893899
27628445041,-6.75112e-05,0.00859221,0.000640163,6.75112e-05,-0.000348383,-0.000476836,0,0.00824383,0.000163328,0.002232,0.0300805,-6.75126e-05,3.57666,0.000186904,0.00251888,-5.65337e-06,0.895422,0.894259,0.892903,0.894072
27628453099,-6.47015e-05,0.00750942,0.0018236,6.47015e-05,0.000738723,-0.00166499,0,0.00824815,0.000158614,0.00639121,0.0262751,-6.47001e-05,3.57666,0.000535188,0.00220023,-5.41786e-06,0.895263,0.894433,0.893062,0.893898
27628461390,-6.7586e-05,0.00857706,0.000633124,6.7586e-05,-0.000324498,-0.000479322,0,0.00825256,0.000153802,0.00220734,0.0300274,-6.75874e-05,3.57665,0.000184838,0.00251444,-5.65964e-06,0.895419,0.894257,0.892905,0.894073
27628469048,-6.47483e-05,0.00749832,0.00182264,6.47483e-05,0.00075835,-0.00167332,0,0.00825667,0.000149316,0.00638789,0.0262363,-6.47469e-05,3.57665,0.000534909,0.00219697,-5.42178e-06,0.895261,0.894432,0.893064,0.893897
27628477053,-6.76572e-05,0.00855997,0.000628121,6.76572e-05,-0.000299011,-0.000483479,0,0.00826096,0.000144642,0.0021898,0.0299675,-6.76586e-05,3.57665,0.000183369,0.00250942,-5.6656e-06,0.895416,0.894256,0.892907,0.894073
27628485138,-6.47972e-05,0.00748905,0.00182203,6.47972e-05,0.000776222,-0.00168209,0,0.00826527,0.000139938,0.0063858,0.0262039,-6.47958e-05,3.57665,0.000534734,0.00219426,-5.42587e-06,0.895259,0.894432,0.893064,0.893897
27628493331,-6.77293e-05,0.00854376,0.000622098,6.77293e-05,-0.00027413,-0.000486915,0,0.00826963,0.000135183,0.00216868,0.0299108,-6.77307e-05,3.57665,0.000181601,0.00250467,-5.67164e-06,0.895414,0.894255,0.892909,0.894073
27628501347,-6.48462e-05,0.00748111,0.00182271,6.48462e-05,0.00079277,-0.00169217,0,0.00827388,0.00013054,0.00638822,0.0261762,-6.48448e-05,3.57665,0.000534937,0.00219194,-5.42997e-06,0.895257,0.894431,0.893065,0.893896
27628509321,-6.78012e-05,0.0085276,0.000616072,6.78012e-05,-0.000249409,-0.00049023,0,0.00827819,0.000125842,0.00214754,0.0298542,-6.78026e-05,3.57665,0.000179831,0.00249993,-5.67766e-06,0.895411,0.894254,0.892911,0.894074
27628573172,-6.48924e-05,0.00750379,0.00179364,6.48924e-05,0.000808487,-0.00170498,0,0.00831228,8.8657e-05,0.00628655,0.0262556,-6.48909e-05,3.57664,0.000526424,0.00219859,-5.43384e-06,0.895259,0.894425,0.89306,0.893899
27628580996,-6.34103e-05,0.00710765,0.00314384,6.34103e-05,0.00120883,-0.00305977,0,0.00831649,8.40688e-05,0.0110133,0.0248739,-6.34095e-05,3.57664,0.000922229,0.00208289,-5.30979e-06,0.895201,0.894623,0.893118,0.893701
27628589081,-6.85075e-05,0.0069136,0.00156355,6.85075e-05,0.00140718,-0.00148416,0,0.00832078,7.93847e-05,0.005461,0.0241962,-6.851e-05,3.57664,0.000457294,0.00202614,-5.7369e-06,0.895172,0.89439,0.893146,0.893933
27628597043,-7.20581e-05,0.00853588,0.00145917,7.20581e-05,-0.000210808,-0.00138446,0,0.00832507,7.47079e-05,0.00510636,0.0298873,-7.20598e-05,3.57664,0.000427597,0.0025027,-6.03415e-06,0.89541,0.894375,0.892907,0.893948
27628605068,-5.94738e-05,0.00886173,0.00301133,5.94738e-05,-0.000532365,-0.00294131,0,0.00832937,7.00162e-05,0.0105509,0.0310184,-5.94675e-05,3.57664,0.000883514,0.00259742,-4.97969e-06,0.895457,0.894603,0.89286,0.893719
27628613021,-6.19254e-05,0.0080177,0.00168153,6.19254e-05,0.000432517,-0.00156883,0,0.00845021,0.000112694,0.0058754,0.0280549,-6.19266e-05,3.57662,0.000491994,0.00234927,-5.18562e-06,0.895327,0.894401,0.892978,0.893909
27628621025,-5.24495e-05,0.00945394,0.00223169,5.24495e-05,-0.000996448,-0.00212229,0,0.0084575,0.0001094,0.00781494,0.0330992,-5.24448e-05,3.57661,0.000654408,0.00277166,-4.39162e-06,0.895538,0.894482,0.892767,0.893827
27628628954,-5.51559e-05,0.00893363,0.000706667,5.51559e-05,-0.000468783,-0.000600594,0,0.00846485,0.000106074,0.0024623,0.0312639,-5.51573e-05,3.57661,0.000206189,0.00261798,-4.61876e-06,0.895461,0.894257,0.892843,0.894051
27628636887,-4.52376e-05,0.0096342,0.00217217,4.52376e-05,-0.00116178,-0.00206952,0,0.00847241,0.00010265,0.00761324,0.0337247,-4.52326e-05,3.57661,0.000637518,0.00282404,-3.78769e-06,0.895564,0.894473,0.89274,0.893835
27628644871,-4.76868e-05,0.00877016,0.000838622,4.76868e-05,-0.000290299,-0.00073934,0,0.00847986,9.92821e-05,0.00292553,0.0306892,-4.7688e-05,3.57661,0.000244978,0.00256986,-3.9933e-06,0.895436,0.894276,0.892867,0.894031
27628652940,-5.07846e-05,0.00881859,0.00233732,5.07846e-05,-0.000331223,-0.00224143,0,0.00848737,9.58828e-05,0.0081915,0.0308654,-5.07861e-05,3.57661,0.00068594,0.00258461,-4.25273e-06,0.895443,0.894496,0.892859,0.89381
27628661110,-5.47969e-05,0.00873618,0.000843199,5.47969e-05,-0.00024144,-0.000750654,0,0.00849475,9.25453e-05,0.00294039,0.030576,-5.47989e-05,3.57661,0.000246223,0.00256037,-4.58876e-06,0.895431,0.894276,0.89287,0.89403
27628669156,-4.44414e-05,0.00921607,0.00243305,4.44414e-05,-0.00071368,-0.00234397,0,0.00850239,8.90849e-05,0.00852724,0.0322597,-4.44362e-05,3.57661,0.000714055,0.00270136,-3.72101e-06,0.895501,0.894509,0.8928,0.893795
27628677118,-3.19375e-05,0.00795366,0.00350796,3.19375e-05,0.000556218,-0.00342226,0,0.00850988,8.5698e-05,0.0122857,0.0278286,-3.19312e-05,3.5766,0.00102878,0.00233031,-2.67386e-06,0.895315,0.894666,0.892985,0.893637
27628740912,-3.83399e-05,0.0073676,0.00190549,3.83399e-05,0.00120154,-0.00184661,0,0.00856914,5.88827e-05,0.00665779,0.0257819,-3.83431e-05,3.57659,0.00055751,0.00215893,-3.21077e-06,0.895227,0.894428,0.893068,0.89387
27628749881,-4.65775e-05,0.00754666,0.00024149,4.65775e-05,0.00103078,-0.000186359,0,0.00857743,5.51307e-05,0.000833179,0.0264145,-4.65816e-05,3.57659,6.97688e-05,0.0022119,-3.90066e-06,0.895253,0.894183,0.893041,0.894114
27628756552,-5.35374e-05,0.00734932,-0.00130518,5.35374e-05,0.00123447,0.00135743,0,0.00858379,5.22526e-05,-0.00457931,0.0257211,-5.35409e-05,3.57659,-0.000383463,0.00215384,-4.48341e-06,0.895223,0.893957,0.893069,0.89434
27628764481,-5.55694e-05,0.00811169,0.000165237,5.55694e-05,0.000479534,-0.000116346,0,0.00859122,4.88909e-05,0.000589016,0.0283964,-5.55704e-05,3.57659,4.9323e-05,0.00237786,-4.65336e-06,0.895335,0.894173,0.892957,0.894123
27628772454,-6.13039e-05,0.0092726,-0.00089307,6.13039e-05,-0.000673898,0.000938577,0,0.0085987,4.55063e-05,-0.00313339,0.0324625,-6.13068e-05,3.57659,-0.000262384,0.00271834,-5.13371e-06,0.895504,0.894017,0.892786,0.894279
27628780395,-6.41418e-05,0.00925657,0.000704063,6.41418e-05,-0.000650491,-0.000661895,0,0.00860608,4.2168e-05,0.00247582,0.0323978,-6.41432e-05,3.57658,0.000207321,0.00271293,-5.37123e-06,0.895501,0.894251,0.892788,0.894044
27628788271,-6.66947e-05,0.00833853,0.00202676,6.66947e-05,5.09331e-05,-0.00200555,0,0.00838946,2.12118e-05,0.00710341,0.0291798,-6.6696e-05,3.57663,0.000594826,0.00244346,-5.58499e-06,0.895377,0.894456,0.892934,0.893861
27628796218,-5.90856e-05,0.00896067,0.000614357,5.90856e-05,-0.000569742,-0.000596928,0,0.00839093,1.74289e-05,0.00214004,0.0313669,-5.90818e-05,3.57663,0.000179202,0.0026266,-4.9474e-06,0.895469,0.894248,0.892842,0.894069
27628804259,-6.33692e-05,0.00846334,-0.000857453,6.33692e-05,-7.09246e-05,0.000871054,0,0.00839241,1.36012e-05,-0.00301173,0.0296181,-6.33713e-05,3.57663,-0.000252196,0.00248016,-5.30659e-06,0.895396,0.894032,0.892915,0.894284
27628812226,-6.82729e-05,0.00937608,-0.00209562,6.82729e-05,-0.000982192,0.00210543,0,0.00839388,9.8087e-06,-0.00734362,0.0328229,-6.82754e-05,3.57663,-0.000614941,0.00274852,-5.71725e-06,0.89553,0.893851,0.892781,0.894466
27628820228,-7.15537e-05,0.0093517,-0.000491606,7.15537e-05,-0.000956345,0.00049762,0,0.00839536,6.01425e-06,-0.00170896,0.0327308,-7.15554e-05,3.57663,-0.000143105,0.00274081,-5.99191e-06,0.895526,0.894087,0.892785,0.89423
27628899643,-7.50371e-05,0.000515797,-3.14068,7.50371e-05,-0.000515797,-0.000947037,0,0,3.14156,-10.9924,0.0018021,-7.50388e-05,3.57662,-0.845311,0.000150904,-6.28361e-06,0.89423,0.471502,0.894079,0.99
27628907501,-6.68902e-05,0.00155018,3.14137,6.68902e-05,-0.00155018,0.000183941,0,0,3.14156,10.9948,0.00543312,-6.68861e-05,3.57662,0.845452,0.000454959,-5.60091e-06,0.894382,0.99,0.893927,0.471431
27628915419,-6.95907e-05,0.00090857,3.13996,6.95907e-05,-0.00090857,0.0015932,0,0,3.14155,10.9899,0.00317535,-6.95921e-05,3.57662,0.845166,0.000265897,-5.8275e-06,0.894287,0.99,0.894021,0.471574
27628923403,-6.05609e-05,0.0013695,3.14157,6.05609e-05,-0.0013695,-1.55807e-05,0,0,3.14155,10.9955,0.0047966,-6.05564e-05,3.57662,0.845492,0.000401658,-5.07087e-06,0.894355,0.99,0.893954,0.471411
27628931591,-6.26739e-05,5.37929e-05,3.14069,6.26739e-05,-5.37929e-05,0.000855775,0,0,3.14155,10.9924,0.000178736,-6.26749e-05,3.57662,0.845314,1.4967e-05,-5.24828e-06,0.894162,0.99,0.894147,0.4715
27628939632,-6.51955e-05,-0.000147463,-3.14101,6.51955e-05,0.000147463,-0.000634172,0,0,3.14154,-10.9935,-0.000517578,-6.51968e-05,3.57662,-0.845378,-4.3341e-05,-5.45945e-06,0.894133,0.471468,0.894176,0.99
27628947539,-5.78556e-05,0.00122878,3.1415,5.78556e-05,-0.00122878,4.19146e-05,0,0,3.14154,10.9952,0.0043107,-5.78519e-05,3.57662,0.845477,0.00036097,-4.84441e-06,0.894335,0.99,0.893974,0.471418
27628955721,-6.10467e-05,0.000619545,3.14007,6.10467e-05,-0.000619545,0.00146601,0,0,3.14153,10.9902,0.00216399,-6.10483e-05,3.57662,0.845188,0.000181208,-5.11206e-06,0.894245,0.99,0.894064,0.471563
27628963532,-5.16134e-05,0.00964276,0.000313485,5.16134e-05,-0.00110181,-0.000135305,0,0.00854095,0.000178181,0.00110881,0.0337532,-5.16087e-05,3.5766,9.28495e-05,0.00282642,-4.32161e-06,0.895561,0.894197,0.892735,0.894104
27628971602,-5.39999e-05,0.00835262,-0.000586343,5.39999e-05,0.00019306,0.000767163,0,0.00854568,0.00018082,-0.00205874,0.0292248,-5.40011e-05,3.5766,-0.000172395,0.00244723,-4.52195e-06,0.895372,0.894064,0.892924,0.894236
27628979637,-5.62343e-05,0.00821301,0.000911979,5.62343e-05,0.000337395,-0.000728524,0,0.00855041,0.000183455,0.00320277,0.0287445,-5.62355e-05,3.5766,0.000268194,0.00240701,-4.70905e-06,0.895351,0.894284,0.892944,0.894016
27628987731,-4.90193e-05,0.00960483,0.000265863,4.90193e-05,-0.00104968,-7.97588e-05,0,0.00855515,0.000186104,0.000925817,0.033627,-4.90157e-05,3.57659,7.75261e-05,0.00281586,-4.10448e-06,0.895556,0.894188,0.89274,0.894111
27628995556,-5.24881e-05,0.00901647,-0.00116285,5.24881e-05,-0.000456723,0.00135152,0,0.00855974,0.000188666,-0.00408035,0.0315533,-5.24899e-05,3.57659,-0.000341681,0.00264222,-4.3954e-06,0.895468,0.893979,0.892826,0.89432
27629062603,-5.68124e-05,0.00993456,-0.00239731,5.68124e-05,-0.00133545,0.00260794,0,0.00859911,0.000210633,-0.00839968,0.0347773,-5.68145e-05,3.57659,-0.000703373,0.00291219,-4.75754e-06,0.895601,0.893796,0.892689,0.894499
27629070417,-6.05095e-05,0.00984801,-0.000792214,6.05095e-05,-0.00124424,0.00100545,0,0.00860377,0.000213235,-0.00276113,0.0344674,-6.05114e-05,3.57658,-0.000231212,0.00288623,-5.06711e-06,0.895588,0.894032,0.892702,0.894263
27629078400,-6.43075e-05,0.00934151,0.000631582,6.43075e-05,-0.000733065,-0.000415738,0,0.00860844,0.000215844,0.00222084,0.0326916,-6.43094e-05,3.57658,0.000185969,0.00273753,-5.38515e-06,0.895513,0.89424,0.892776,0.894054
27629086591,-5.61254e-05,0.0105593,-0.000298086,5.61254e-05,-0.00194608,0.000516598,0,0.00861322,0.000218512,-0.00105006,0.0369663,-5.61213e-05,3.57658,-8.793e-05,0.00309549,-4.69949e-06,0.895692,0.894103,0.892597,0.894191
27629094486,-5.8215e-05,0.00985368,-0.00166968,5.8215e-05,-0.00123576,0.00189082,0,0.00861792,0.000221132,-0.00585386,0.0344827,-5.82161e-05,3.57658,-0.000490191,0.00288752,-4.8749e-06,0.895588,0.893902,0.8927,0.894392
27629102481,-6.33807e-05,0.0099196,-0.000126004,6.33807e-05,-0.00129699,0.000349756,0,0.00862261,0.000223752,-0.000429841,0.0347191,-6.33833e-05,3.57658,-3.5994e-05,0.00290731,-5.3076e-06,0.895598,0.894129,0.89269,0.894165
27629110518,-6.58243e-05,0.00949728,-0.00152842,6.58243e-05,-0.000869941,0.00175481,0,0.00862734,0.000226391,-0.00535966,0.0332374,-6.58255e-05,3.57658,-0.000448807,0.00278324,-5.5121e-06,0.895535,0.893922,0.892752,0.894371
27629118471,-7.01912e-05,0.00964371,-9.5214e-06,7.01912e-05,-0.00101168,0.000238533,0,0.00863204,0.000229012,-2.23319e-05,0.033754,-7.01933e-05,3.57658,-1.87003e-06,0.0028265,-5.87785e-06,0.895557,0.894145,0.89273,0.894147
27629126548,-5.98366e-05,0.00908059,0.0014321,5.98366e-05,-0.000629288,-0.00134573,0,0.0084513,8.63738e-05,0.00502384,0.0317793,-5.98314e-05,3.57662,0.000420686,0.00266114,-5.01016e-06,0.895483,0.894365,0.892822,0.893945
27629134544,-6.39057e-05,0.00852835,-4.76266e-05,6.39057e-05,-7.74912e-05,0.000132592,0,0.00845086,8.4965e-05,-0.000177411,0.0298452,-6.39077e-05,3.57662,-1.4856e-05,0.00249918,-5.35151e-06,0.895402,0.894148,0.892903,0.894163
27629142413,-6.7774e-05,0.00889203,0.00143743,6.7774e-05,-0.000441604,-0.00135384,0,0.00845042,8.35874e-05,0.00504177,0.0311247,-6.77759e-05,3.57662,0.000422188,0.00260632,-5.67542e-06,0.895456,0.894366,0.892849,0.893944
27629200529,-7.17945e-05,0.00876038,-4.01297e-05,7.17945e-05,-0.000313145,0.000113569,0,0.00844724,7.3439e-05,-0.000151093,0.0306604,-7.17965e-05,3.57662,-1.26522e-05,0.00256744,-6.0121e-06,0.895436,0.894149,0.892869,0.894162
27629208165,-7.5352e-05,0.00897826,0.00147065,7.5352e-05,-0.000531446,-0.00139856,0,0.00844681,7.20942e-05,0.00515824,0.0314255,-7.53537e-05,3.57662,0.000431941,0.00263151,-6.30998e-06,0.895468,0.894372,0.892837,0.89394
27629216083,-6.45034e-05,0.00879256,0.00308463,6.45034e-05,-0.000346177,-0.00301392,0,0.00844638,7.0711e-05,0.0108079,0.0307726,-6.4498e-05,3.57662,0.000905035,0.00257684,-5.40094e-06,0.895441,0.894608,0.892864,0.893703
27629224215,-6.90889e-05,0.00828488,0.00158947,6.90889e-05,0.000161051,-0.00152017,0,0.00844594,6.93007e-05,0.0055523,0.0289934,-6.90912e-05,3.57662,0.000464939,0.00242785,-5.78556e-06,0.895367,0.894388,0.892939,0.893923
27629232293,-7.31496e-05,0.0089033,0.00298994,7.31496e-05,-0.000457805,-0.00292205,0,0.00844549,6.7893e-05,0.010475,0.031166,-7.31516e-05,3.57662,0.000877154,0.00260978,-6.12557e-06,0.895458,0.894594,0.892848,0.893717
27629240148,-7.72468e-05,0.00878956,0.00151958,7.72468e-05,-0.000344504,-0.00145307,0,0.00844506,6.65131e-05,0.00530789,0.0307627,-7.72488e-05,3.57662,0.000444473,0.00257601,-6.46867e-06,0.895441,0.894378,0.892865,0.893934
27629247854,-8.08287e-05,0.00918355,0.00353668,8.08287e-05,-0.000577153,-0.00296363,0,0.0086064,0.000573053,0.0123893,0.0321441,-8.08305e-05,3.57658,0.00103746,0.00269169,-6.76859e-06,0.895489,0.894666,0.892798,0.893628
27629256052,-6.97009e-05,0.00888116,0.00515245,6.97009e-05,-0.00026986,-0.00456402,0,0.0086113,0.000588437,0.0180452,0.0310818,-6.96954e-05,3.57658,0.00151107,0.00260273,-5.83615e-06,0.895445,0.894902,0.892842,0.893391
27629263932,-7.44986e-05,0.00842059,0.00365928,7.44986e-05,0.000195541,-0.00305567,0,0.00861613,0.000603606,0.0127965,0.0294687,-7.4501e-05,3.57658,0.00107156,0.00246765,-6.23857e-06,0.895377,0.894682,0.892909,0.89361
27629272086,-7.96982e-05,0.00953973,0.00474276,7.96982e-05,-0.000918645,-0.00412362,0,0.00862108,0.000619134,0.0166074,0.0333971,-7.97008e-05,3.57658,0.00139067,0.00279661,-6.67399e-06,0.895541,0.894841,0.892744,0.893451
27629280080,-8.31125e-05,0.00938719,0.00329376,8.31125e-05,-0.000761282,-0.00265951,0,0.0086259,0.000634255,0.0115176,0.032854,-8.31142e-05,3.57658,0.000964458,0.00275113,-6.95982e-06,0.895518,0.894628,0.892767,0.893664
27629288195,-8.72622e-05,0.00960013,0.00482416,8.72622e-05,-0.000969255,-0.00417431,0,0.00863087,0.000649844,0.0168955,0.033602,-8.72643e-05,3.57657,0.0014148,0.00281376,-7.30734e-06,0.895549,0.894853,0.892735,0.893438
27629296104,-7.58074e-05,0.00884998,0.00630579,7.58074e-05,-0.000214244,-0.00564069,0,0.00863573,0.000665094,0.0220809,0.0309694,-7.58017e-05,3.57657,0.00184901,0.00259332,-6.34749e-06,0.895438,0.895069,0.892845,0.89322
27629304088,-8.07538e-05,0.00841276,0.00480399,8.07538e-05,0.000227841,-0.00412363,0,0.0086406,0.00068036,0.016803,0.0294415,-8.07562e-05,3.57657,0.00140705,0.00246537,-6.76237e-06,0.895374,0.894848,0.892909,0.893441
27629312228,-8.71974e-05,0.00999445,0.00495618,8.71974e-05,-0.00134895,-0.00426044,0,0.0086455,0.00069574,0.0173476,0.034992,-8.72007e-05,3.57657,0.00145266,0.00293016,-7.30202e-06,0.895606,0.894871,0.892676,0.893418
27629320158,-8.99098e-05,0.00978902,0.00351531,8.99098e-05,-0.00113863,-0.00280424,0,0.00865038,0.000711063,0.012293,0.03426,-8.99112e-05,3.57657,0.00102939,0.00286887,-7.52899e-06,0.895575,0.894659,0.892706,0.89363
27629328114,-9.45756e-05,0.00996325,0.00505057,9.45756e-05,-0.00130799,-0.00432421,0,0.00865526,0.000726363,0.017688,0.0348726,-9.45779e-05,3.57657,0.00148116,0.00292016,-7.91977e-06,0.8956,0.894885,0.89268,0.893404
27629336174,-8.17335e-05,0.00870649,0.00412969,8.17335e-05,-4.63155e-05,-0.0033879,0,0.00866018,0.000741787,0.0144471,0.0304636,-8.17271e-05,3.57657,0.00120977,0.00255096,-6.84367e-06,0.895416,0.894748,0.892865,0.893539
27629404410,-8.21143e-05,0.0064054,0.0039852,8.21143e-05,0.0022962,-0.00311342,0,0.0087016,0.000871781,0.0139462,0.0224019,-8.21144e-05,3.57656,0.00116783,0.00187589,-6.87611e-06,0.895075,0.894725,0.893199,0.893557
27629411991,-8.4259e-05,0.00499227,0.0038723,8.4259e-05,0.00371405,-0.00298568,0,0.00870633,0.000886619,0.0135521,0.0174627,-8.42601e-05,3.57656,0.00113483,0.00146229,-7.05577e-06,0.894868,0.894708,0.893406,0.893573
27629419919,-8.8603e-05,0.00682425,0.00402471,8.8603e-05,0.00188691,-0.00312292,0,0.00871116,0.000901789,0.0140875,0.0238981,-8.86052e-05,3.57655,0.00117966,0.00200118,-7.41962e-06,0.895137,0.89473,0.893136,0.893551
27629428052,-9.18769e-05,0.00847014,0.00413051,9.18769e-05,0.000245934,-0.0032133,0,0.00871607,0.000917213,0.0144575,0.0296574,-9.18786e-05,3.57655,0.00121064,0.00248345,-7.69373e-06,0.895378,0.894745,0.892894,0.893535
27629435996,-9.47163e-05,0.0100122,0.00384596,9.47163e-05,-0.00129128,-0.00291342,0,0.00872096,0.000932539,0.0134587,0.035054,-9.47177e-05,3.57655,0.001127,0.00293535,-7.93148e-06,0.895604,0.894703,0.892668,0.893576
27629444141,-9.44825e-05,0.00939771,0.0023594,9.44825e-05,-0.000671839,-0.00141146,0,0.00872587,0.000947948,0.00824702,0.0328875,-9.44824e-05,3.57655,0.00069059,0.00275393,-7.91177e-06,0.895512,0.894485,0.892759,0.893794
27629503801,-9.39418e-05,0.00749769,0.000933055,9.39418e-05,0.000722154,-0.000572244,0,0.00821984,0.000360811,0.00325961,0.0262318,-9.39416e-05,3.57666,0.000272953,0.0021966,-7.86649e-06,0.895261,0.894303,0.893065,0.89403
27629511632,-9.33365e-05,0.00593924,0.000488631,9.33365e-05,0.00227383,-0.000127221,0,0.00821307,0.00036141,0.00170698,0.0207761,-9.33362e-05,3.57666,0.000142939,0.00173975,-7.81579e-06,0.895033,0.894239,0.893293,0.894096
27629519493,-8.87448e-05,0.00449721,0.00121423,8.87448e-05,0.00370894,-0.000852211,0,0.00820614,0.000362023,0.00425508,0.0157298,-8.87425e-05,3.57666,0.000356312,0.00131718,-7.43113e-06,0.894822,0.894346,0.893505,0.893989
27629527407,-8.75557e-05,0.00589738,0.00197638,8.75557e-05,0.00230174,-0.00161374,0,0.00819912,0.000362645,0.00692286,0.020651,-8.75551e-05,3.57666,0.000579707,0.00172928,-7.33169e-06,0.895029,0.894458,0.893299,0.893878
27629535406,-8.84946e-05,0.00743142,0.00240078,8.84946e-05,0.00076064,-0.00203751,0,0.00819206,0.00036327,0.0084058,0.0260211,-8.8495e-05,3.57666,0.000703885,0.00217896,-7.4104e-06,0.895254,0.89452,0.893075,0.893816
27629543522,-9.06172e-05,0.00901895,0.00236288,9.06172e-05,-0.000834028,-0.00199898,0,0.00818492,0.000363902,0.0082698,0.0315779,-9.06182e-05,3.57667,0.000692497,0.00264427,-7.58819e-06,0.895487,0.894515,0.892842,0.893822
27629551499,-8.91312e-05,0.00746282,0.00192247,8.91312e-05,0.000714967,-0.00155793,0,0.00817779,0.000364533,0.00672544,0.0261087,-8.91304e-05,3.57667,0.000563175,0.00218629,-7.46361e-06,0.895258,0.89445,0.893072,0.893887
27629559528,-9.09129e-05,0.009022,0.00218442,9.09129e-05,-0.000851377,-0.00181925,0,0.00817063,0.000365167,0.00764735,0.0315884,-9.09138e-05,3.57667,0.000640374,0.00264515,-7.61294e-06,0.895488,0.894489,0.892843,0.893849
27629567680,-8.94065e-05,0.00887663,0.00289754,8.94065e-05,0.000702423,-0.00138034,0,0.00957905,0.00151719,0.0101382,0.0310569,-8.94057e-05,3.57635,0.000848953,0.00260065,-7.48666e-06,0.895386,0.894514,0.892785,0.893665
27629575556,-9.14113e-05,0.0105054,0.00300008,9.14113e-05,-0.000885441,-0.00144351,0,0.00961992,0.00155657,0.0105007,0.0367803,-9.14123e-05,3.57634,0.000879311,0.00307991,-7.65469e-06,0.895623,0.894527,0.892543,0.893647
27629583553,-8.96631e-05,0.00894963,0.00279173,8.96631e-05,0.000711633,-0.00119533,0,0.00966126,0.0015964,0.00976926,0.0313121,-8.96622e-05,3.57633,0.000818059,0.00262202,-7.50814e-06,0.895391,0.894493,0.892769,0.893675
27629591645,-9.17294e-05,0.0105776,0.00283126,9.17294e-05,-0.000875585,-0.00119561,0,0.009702,0.00163565,0.00990941,0.037033,-9.17304e-05,3.57632,0.000829794,0.00310108,-7.68133e-06,0.895628,0.894496,0.892527,0.893667
27629599694,-8.97959e-05,0.00900614,0.00279853,8.97959e-05,0.000736525,-0.0011237,0,0.00974266,0.00167483,0.00979433,0.0315098,-8.97949e-05,3.57631,0.000820158,0.00263857,-7.51925e-06,0.895394,0.894489,0.892756,0.893669
27629607783,-9.18275e-05,0.0106345,0.00287473,9.18275e-05,-0.000851287,-0.00116079,0,0.00978325,0.00171394,0.0100618,0.0372324,-9.18285e-05,3.5763,0.000842558,0.00311777,-7.68954e-06,0.895631,0.894497,0.892513,0.893655
27629676823,-8.98556e-05,0.00936076,0.00316771,8.98556e-05,0.000764684,-0.00112398,0,0.0101254,0.00204373,0.0110867,0.032751,-8.98547e-05,3.5762,0.000928381,0.0027425,-7.52426e-06,0.89542,0.894517,0.892677,0.893588
27629684832,-9.18789e-05,0.0109859,0.00324752,9.18789e-05,-0.000821506,-0.00116629,0,0.0101644,0.00208124,0.0113666,0.038462,-9.18799e-05,3.57619,0.00095182,0.00322074,-7.69385e-06,0.895656,0.894526,0.892436,0.893574
27629692792,-8.99177e-05,0.00941004,0.00324027,8.99177e-05,0.000793265,-0.00112149,0,0.0102033,0.00211878,0.0113406,0.0329234,-8.99167e-05,3.57618,0.000949641,0.00275695,-7.52945e-06,0.895422,0.894522,0.892665,0.893572
27629700609,-9.1953e-05,0.0110334,0.00330553,9.1953e-05,-0.000792456,-0.00115044,0,0.010241,0.00215509,0.0115696,0.0386285,-9.19541e-05,3.57617,0.000968814,0.00323468,-7.70006e-06,0.895658,0.894529,0.892423,0.89356
27629708684,-8.99982e-05,0.00945854,0.00329472,8.99982e-05,0.000821418,-0.00110205,0,0.01028,0.00219267,0.0115312,0.0330932,-8.99972e-05,3.57616,0.000965597,0.00277116,-7.53619e-06,0.895423,0.894524,0.892652,0.893559
27629716590,-9.20393e-05,0.0101827,0.00212394,9.20393e-05,-0.000764112,-0.00112482,0,0.00941857,0.00099912,0.00743396,0.0356509,-9.20403e-05,3.5764,0.000622505,0.00298534,-7.70728e-06,0.895591,0.894414,0.892606,0.893791
27629724668,-9.00886e-05,0.00858264,0.00207637,9.00886e-05,0.000849235,-0.00107469,0,0.00943188,0.00100168,0.00726694,0.0300276,-9.00876e-05,3.5764,0.000608519,0.00251445,-7.54376e-06,0.895355,0.894406,0.892841,0.893797
27629732854,-9.21295e-05,0.0101818,0.00210204,9.21295e-05,-0.000736659,-0.00109781,0,0.00944519,0.00100424,0.00735731,0.035648,-9.21305e-05,3.5764,0.000616087,0.00298509,-7.71483e-06,0.895589,0.894409,0.892604,0.893793
27629740776,-9.01808e-05,0.00858165,0.0020539,9.01808e-05,0.000876872,-0.0010471,0,0.00945853,0.0010068,0.00718828,0.0300241,-9.01798e-05,3.57639,0.000601933,0.00251416,-7.55149e-06,0.895353,0.894401,0.892839,0.893799
27629748768,-9.22193e-05,0.0101817,0.00208245,9.22193e-05,-0.00071,-0.00107312,0,0.0094717,0.00100933,0.00728876,0.0356474,-9.22203e-05,3.57639,0.000610347,0.00298505,-7.72235e-06,0.895588,0.894404,0.892603,0.893794
27629756873,-9.02746e-05,0.00858064,0.00203136,9.02746e-05,0.000904278,-0.00101949,0,0.00948491,0.00101187,0.00710937,0.0300205,-9.02736e-05,3.57639,0.000595325,0.00251386,-7.55934e-06,0.895352,0.894396,0.892838,0.893801
27629764726,-9.23089e-05,0.0101817,0.00206421,9.23089e-05,-0.000683612,-0.00104982,0,0.00949804,0.00101439,0.00722497,0.0356473,-9.23099e-05,3.57638,0.000605005,0.00298504,-7.72985e-06,0.895586,0.8944,0.892601,0.893795
27629772879,-9.03711e-05,0.00857979,0.00200775,9.03711e-05,0.000931527,-0.000990803,0,0.00951132,0.00101694,0.00702668,0.0300176,-9.03702e-05,3.57638,0.000588401,0.00251361,-7.56742e-06,0.89535,0.894391,0.892836,0.893803
27629780851,-9.23979e-05,0.0101808,0.00204656,9.23979e-05,-0.000656451,-0.00102711,0,0.00952438,0.00101945,0.00716324,0.0356444,-9.23989e-05,3.57638,0.000599836,0.0029848,-7.73731e-06,0.895585,0.894396,0.8926,0.893796
27629865479,-9.04721e-05,0.00870428,0.00200647,9.04721e-05,0.000957791,-0.00096056,0,0.00966207,0.00104591,0.00702217,0.0304533,-9.04712e-05,3.57635,0.000588023,0.0025501,-7.57588e-06,0.89536,0.894382,0.89281,0.893794
27629872879,-9.24858e-05,0.0103026,0.00205317,9.24858e-05,-0.000628078,-0.00100486,0,0.00967453,0.00104831,0.00718641,0.0360706,-9.24868e-05,3.57634,0.000601776,0.00302048,-7.74467e-06,0.895594,0.894389,0.892574,0.893787
27629880829,-9.05761e-05,0.00870275,0.00197928,9.05761e-05,0.000984617,-0.000928509,0,0.00968737,0.00105077,0.00692694,0.0304479,-9.05751e-05,3.57634,0.000580048,0.00254965,-7.58458e-06,0.895358,0.894377,0.892808,0.893797
27629888834,-9.25747e-05,0.0103005,0.00203641,9.25747e-05,-0.000600255,-0.000983172,0,0.00970021,0.00105324,0.00712785,0.0360631,-9.25757e-05,3.57634,0.000596872,0.00301986,-7.75211e-06,0.895592,0.894385,0.892572,0.893788
27629896905,-9.06835e-05,0.00870151,0.00195031,9.06835e-05,0.00101177,-0.00089456,0,0.00971329,0.00105575,0.00682546,0.0304436,-9.06826e-05,3.57633,0.000571551,0.00254929,-7.59358e-06,0.895356,0.894371,0.892807,0.8938
27629905119,-9.26659e-05,0.0103001,0.00202024,9.26659e-05,-0.000573934,-0.000962011,0,0.00972616,0.00105823,0.00707133,0.0360618,-9.26668e-05,3.57633,0.000592139,0.00301975,-7.75974e-06,0.895591,0.894381,0.892571,0.893789
27629912843,-9.07961e-05,0.0081218,0.00165235,9.07961e-05,0.00103813,-0.000858603,0,0.00915994,0.00079375,0.00578249,0.0284146,-9.07952e-05,3.57646,0.000484214,0.00237939,-7.60301e-06,0.895303,0.89436,0.892924,0.893875
27629920870,-9.27577e-05,0.00970653,0.00173085,9.27577e-05,-0.000547916,-0.000941284,0,0.00915862,0.00078957,0.00605859,0.0339844,-9.27587e-05,3.57646,0.000507334,0.00284578,-7.76744e-06,0.895537,0.894371,0.892691,0.893864
27629928859,-9.0914e-05,0.00809319,0.00160561,9.0914e-05,0.00106408,-0.000820281,0,0.00915728,0.000785333,0.00561877,0.0283145,-9.09131e-05,3.57646,0.000470505,0.002371,-7.61289e-06,0.895299,0.894353,0.892928,0.893882
27629936744,-9.28493e-05,0.00967723,0.00170209,9.28493e-05,-0.000521248,-0.000920847,0,0.00915598,0.000781241,0.00595804,0.0338818,-9.28502e-05,3.57646,0.000498915,0.0028372,-7.7751e-06,0.895532,0.894367,0.892695,0.893868
27629995803,-9.10381e-05,0.00805702,0.00153003,9.10381e-05,0.00108928,-0.000779364,0,0.00914631,0.000750671,0.0053541,0.0281879,-9.10372e-05,3.57647,0.000448342,0.0023604,-7.62328e-06,0.895295,0.894343,0.892934,0.893894
27630003701,-9.29412e-05,0.00963941,0.00164724,9.29412e-05,-0.000494401,-0.000900667,0,0.00914501,0.00074657,0.00576621,0.0337494,-9.29421e-05,3.57647,0.000482851,0.00282611,-7.78279e-06,0.895528,0.89436,0.892702,0.893877
27630011711,-9.11716e-05,0.00803226,0.00147804,9.11716e-05,0.00111145,-0.000735561,0,0.00914371,0.000742482,0.00517195,0.0281013,-9.11707e-05,3.57647,0.000433089,0.00235315,-7.63446e-06,0.895291,0.894335,0.892938,0.893902
27630019580,-9.30361e-05,0.00961216,0.00161924,9.30361e-05,-0.000469766,-0.000880933,0,0.00914239,0.000738309,0.0056684,0.033654,-9.30371e-05,3.57647,0.000474661,0.00281812,-7.79074e-06,0.895524,0.894356,0.892706,0.893881
27630027557,-9.13107e-05,0.00800644,0.00142245,9.13107e-05,0.00113465,-0.000688242,0,0.0091411,0.000734212,0.00497719,0.0280109,-9.13099e-05,3.57647,0.00041678,0.00234558,-7.64611e-06,0.895288,0.894327,0.892942,0.89391
27630035549,-9.31295e-05,0.00963974,0.00137458,9.31295e-05,-0.000443218,-0.000861132,0,0.00919652,0.000513445,0.00481227,0.0337505,-9.31304e-05,3.57646,0.00040297,0.0028262,-7.79856e-06,0.895526,0.894318,0.8927,0.893915
27630043300,-9.14585e-05,0.00803971,0.00113952,9.14585e-05,0.00115731,-0.000636897,0,0.00919702,0.000502627,0.00398671,0.0281274,-9.14576e-05,3.57646,0.000333839,0.00235533,-7.65848e-06,0.89529,0.894283,0.892935,0.89395
27630051473,-9.32231e-05,0.00961375,0.00133274,9.32231e-05,-0.000416221,-0.000841356,0,0.00919753,0.000491383,0.00466607,0.0336595,-9.3224e-05,3.57646,0.000390728,0.00281859,-7.8064e-06,0.895522,0.894312,0.892703,0.893921
27630059305,-9.16185e-05,0.00802119,0.0010616,9.16185e-05,0.00117684,-0.000581145,0,0.00919803,0.000480458,0.00371372,0.0280626,-9.16177e-05,3.57646,0.00031098,0.00234991,-7.67189e-06,0.895288,0.894272,0.892938,0.893961
27630067245,-9.33198e-05,0.00958969,0.00129145,9.33198e-05,-0.000391157,-0.000821892,0,0.00919853,0.000469562,0.00452183,0.0335753,-9.33206e-05,3.57646,0.00037865,0.00281153,-7.81449e-06,0.895518,0.894306,0.892707,0.893927
27630075413,-8.01875e-05,0.00979353,0.0027895,8.01875e-05,-0.000594475,-0.00233125,0,0.00919905,0.000458257,0.0097742,0.0342788,-8.01809e-05,3.57646,0.000818473,0.00287044,-6.71419e-06,0.895548,0.894526,0.892678,0.893707
27630083274,-8.24548e-05,0.00914922,0.00120824,8.24548e-05,5.03312e-05,-0.000760837,0,0.00919955,0.000447407,0.00421747,0.0320176,-8.2456e-05,3.57646,0.000353163,0.00268109,-6.9047e-06,0.895453,0.894293,0.892772,0.89394
27630091314,-8.55614e-05,0.00934791,-0.000315783,8.55614e-05,-0.000147855,0.000752136,0,0.00920006,0.000436352,-0.00111621,0.0327191,-8.55629e-05,3.57646,-9.34693e-05,0.00273984,-7.16488e-06,0.895483,0.89407,0.892743,0.894163
27630099515,-7.35928e-05,0.00979724,0.00121907,7.35928e-05,-0.000596671,-0.000793809,0,0.00920057,0.000425261,0.00427795,0.0342936,-7.35868e-05,3.57646,0.000358228,0.00287168,-6.16201e-06,0.895549,0.894295,0.892677,0.893937
27630107409,-7.57301e-05,0.00861556,6.69785e-05,7.57301e-05,0.000585507,0.000347392,0,0.00920107,0.00041437,0.000226151,0.0301459,-7.57311e-05,3.57646,1.89375e-05,0.00252436,-6.34158e-06,0.895375,0.894126,0.892851,0.894107
27630167204,-8.00768e-05,0.00912367,-0.0014716,8.00768e-05,8.11749e-05,0.00180364,0,0.00920484,0.000332037,-0.00516116,0.0319365,-8.0079e-05,3.57646,-0.000432186,0.0026743,-6.70566e-06,0.89545,0.8939,0.892776,0.894332
27630175229,-8.21587e-05,0.00931462,-3.05947e-05,8.21587e-05,-0.000109278,0.000351737,0,0.00920534,0.000321142,-9.65552e-05,0.0326026,-8.21598e-05,3.57646,-8.08534e-06,0.00273007,-6.8799e-06,0.895478,0.894112,0.892748,0.89412
27630183268,-8.55683e-05,0.00890042,-0.00153685,8.55683e-05,0.000305428,0.00184703,0,0.00920585,0.00031018,-0.00538981,0.0311485,-8.55701e-05,3.57646,-0.000451332,0.00260831,-7.16547e-06,0.895417,0.893891,0.892809,0.894342
27630191319,-8.77717e-05,0.00918374,-8.87555e-05,8.77717e-05,2.26028e-05,0.000388014,0,0.00920635,0.000299258,-0.000300066,0.0321452,-8.77728e-05,3.57646,-2.5127e-05,0.00269177,-7.34992e-06,0.895459,0.894104,0.892767,0.894129
27630201358,-7.76593e-05,0.00987393,0.00132322,7.76593e-05,-0.000666947,-0.00103778,0,0.00920698,0.000285439,0.0046416,0.0345637,-7.76543e-05,3.57646,0.000388679,0.0028943,-6.50262e-06,0.89556,0.894311,0.892666,0.893922
27630209109,-8.14606e-05,0.00950486,-0.000172291,8.14606e-05,-0.000161365,0.000449048,0,0.0093435,0.000276757,-0.000613798,0.0332633,-8.14625e-05,3.57643,-5.13983e-05,0.00278541,-6.82151e-06,0.895498,0.894083,0.892713,0.894135
27630216968,-7.13781e-05,0.0101205,0.00135968,7.13781e-05,-0.000773039,-0.00109349,0,0.00934748,0.000266189,0.00477006,0.0354263,-7.13731e-05,3.57643,0.000399436,0.00296653,-5.97664e-06,0.895589,0.894308,0.892622,0.893909
27630225145,-7.41997e-05,0.00896515,0.000270832,7.41997e-05,0.000386449,-1.55691e-05,0,0.0093516,0.000255263,0.000940098,0.0313696,-7.42011e-05,3.57643,7.8722e-05,0.00262683,-6.21346e-06,0.895419,0.894148,0.892792,0.894069
27630232928,-7.64192e-05,0.00902282,0.0017579,7.64192e-05,0.000332765,-0.00151319,0,0.00935558,0.000244711,0.00616352,0.0315803,-7.64203e-05,3.57643,0.000516121,0.00264447,-6.39929e-06,0.895427,0.894366,0.892783,0.89385
27630240801,-6.90521e-05,0.0104733,0.00123382,6.90521e-05,-0.00111374,-0.00099976,0,0.0093596,0.000234062,0.00431465,0.0366672,-6.90484e-05,3.57643,0.000361301,0.00307044,-5.78198e-06,0.89564,0.894288,0.89257,0.893927
27630248824,-7.2461e-05,0.00992374,-0.000228577,7.2461e-05,-0.000560083,0.000451869,0,0.00936366,0.000223292,-0.000810544,0.0347291,-7.24627e-05,3.57642,-6.78734e-05,0.00290815,-6.06789e-06,0.895559,0.894074,0.892651,0.894142
27630256742,-6.29633e-05,0.0104571,0.00134289,6.29633e-05,-0.00108941,-0.0011302,0,0.00936766,0.00021269,0.0047116,0.0366036,-6.29585e-05,3.57642,0.00039454,0.00306511,-5.27203e-06,0.895637,0.894305,0.892572,0.89391
27630331431,-6.51167e-05,0.00886095,0.00122403,6.51167e-05,0.000544397,-0.00111128,0,0.00940535,0.000112754,0.00428398,0.0310015,-6.51177e-05,3.57642,0.000358732,0.002596,-5.45283e-06,0.895401,0.894285,0.892805,0.893926
27630339260,-7.06891e-05,0.00773179,-3.89361e-05,7.06891e-05,0.00167751,0.000141203,0,0.0094093,0.000102267,-0.000145357,0.0270531,-7.06919e-05,3.57642,-1.21719e-05,0.00226537,-5.9196e-06,0.895235,0.894099,0.89297,0.894111
27630347093,-6.35106e-05,0.00927318,-0.00015402,6.35106e-05,0.00014009,0.000245763,0,0.00941327,9.17422e-05,-0.000539829,0.0324673,-6.3507e-05,3.57641,-4.52043e-05,0.00271875,-5.31795e-06,0.895462,0.894082,0.892743,0.894128
27630355010,-6.88544e-05,0.00881474,-0.00164446,6.88544e-05,0.000602596,0.00172543,0,0.00941733,8.09768e-05,-0.00576633,0.0308482,-6.88571e-05,3.57641,-0.000482861,0.00258317,-5.76596e-06,0.895393,0.893863,0.89281,0.894346
27630363044,-5.7841e-05,0.00939163,-9.04653e-05,5.7841e-05,2.97461e-05,0.000160713,0,0.00942138,7.02481e-05,-0.000305284,0.0328749,-5.78355e-05,3.57641,-2.55639e-05,0.00275288,-4.84303e-06,0.895478,0.894092,0.892725,0.894117
27630371101,-6.14808e-05,0.00817692,-0.00110492,6.14808e-05,0.00124847,0.00116451,0,0.00942539,5.95975e-05,-0.00387448,0.0286104,-6.14826e-05,3.57641,-0.000324442,0.00239578,-5.14843e-06,0.8953,0.893942,0.892904,0.894266
27630379097,-6.26797e-05,0.00834707,0.000372752,6.26797e-05,0.00108238,-0.00032391,0,0.00942945,4.88416e-05,0.00131542,0.0292159,-6.26803e-05,3.57641,0.000110151,0.00244649,-5.24873e-06,0.895325,0.894159,0.892878,0.894049
27630387021,-6.95774e-05,0.00808024,-0.00119759,6.95774e-05,0.00135325,0.00123573,0,0.00943348,3.81424e-05,-0.00420288,0.0282789,-6.95808e-05,3.57641,-0.000351941,0.00236802,-5.82656e-06,0.895285,0.893928,0.892917,0.89428
27630394827,-7.69457e-05,0.00913681,-0.00179955,7.69457e-05,0.000230189,0.00237825,0,0.009367,0.000578706,-0.0063067,0.031987,-7.69494e-05,3.57642,-0.000528111,0.00267853,-6.44359e-06,0.895443,0.893843,0.892764,0.894371
27630402757,-6.63967e-05,0.00966209,-0.000211369,6.63967e-05,-0.000292851,0.000793486,0,0.00936924,0.000582117,-0.000728303,0.0338211,-6.63914e-05,3.57642,-6.09867e-05,0.00283211,-5.55949e-06,0.89552,0.894076,0.892688,0.894137
27630410862,-6.93986e-05,0.00833659,-0.00106043,6.93986e-05,0.0010349,0.00164597,0,0.00937149,0.000585545,-0.00371767,0.0291685,-6.94001e-05,3.57642,-0.000311311,0.00244251,-5.81143e-06,0.895325,0.893951,0.892882,0.894262
27630418780,-7.07772e-05,0.00842758,0.000438257,7.07772e-05,0.000946161,0.000150719,0,0.00937374,0.000588976,0.00154474,0.0294972,-7.07779e-05,3.57642,0.000129354,0.00247004,-5.92681e-06,0.895338,0.894171,0.892868,0.894042
27630426721,-6.33295e-05,0.00997503,0.000486322,6.33295e-05,-0.000599036,0.000106072,0,0.00937599,0.000592394,0.00170245,0.0349238,-6.33258e-05,3.57642,0.00014256,0.00292445,-5.30278e-06,0.895566,0.894177,0.892641,0.894035
27630434982,-6.74905e-05,0.00942813,-0.000958818,6.74905e-05,-4.98228e-05,0.00155474,0,0.00937831,0.000595923,-0.00336637,0.0329945,-6.74925e-05,3.57642,-0.000281893,0.00276289,-5.65169e-06,0.895485,0.893965,0.892722,0.894247
27630442806,-7.11922e-05,0.00969473,0.000562898,7.11922e-05,-0.000314219,3.63836e-05,0,0.00938051,0.000599282,0.00198115,0.0339335,-7.1194e-05,3.57642,0.000165898,0.00284152,-5.96165e-06,0.895524,0.894189,0.892682,0.894023
27630534466,-7.53495e-05,0.00954485,-0.000862312,7.53495e-05,-0.000138514,0.0015009,0,0.00940634,0.000638585,-0.00302871,0.0334057,-7.53516e-05,3.57641,-0.000253618,0.00279733,-6.3098e-06,0.8955,0.893978,0.892703,0.894231
27630542163,-6.50408e-05,0.00994816,0.000763751,6.50408e-05,-0.000539647,-0.000121849,0,0.00940851,0.000641902,0.00268489,0.0348215,-6.50357e-05,3.57641,0.000224828,0.00291588,-5.44596e-06,0.895559,0.894216,0.892643,0.893992
27630550160,-5.30084e-05,0.00902945,0.00213924,5.30084e-05,0.000381296,-0.00149394,0,0.00941074,0.000645296,0.00749728,0.0315964,-5.30023e-05,3.57641,0.000627807,0.00264582,-4.43831e-06,0.895424,0.894418,0.892778,0.89379
27630558265,-5.86895e-05,0.00856919,0.000631699,5.86895e-05,0.000843842,1.70816e-05,0,0.00941303,0.000648781,0.00219999,0.0299888,-5.86923e-05,3.57641,0.000184223,0.00251121,-4.91478e-06,0.895357,0.894196,0.892846,0.894011
27630566252,-6.2138e-05,0.00932573,0.00197195,6.2138e-05,8.9527e-05,-0.00131978,0,0.00941526,0.000652169,0.00691152,0.0326455,-6.21397e-05,3.57641,0.000578757,0.00273367,-5.20346e-06,0.895468,0.894393,0.892734,0.893814
27630574038,-6.7062e-05,0.00958024,7.29166e-05,6.7062e-05,0.000127433,0.000155999,0,0.00970768,0.000228916,0.000244509,0.0335306,-6.70644e-05,3.57635,2.04747e-05,0.00280779,-5.61584e-06,0.895489,0.894099,0.892682,0.894078
27630582076,-7.00177e-05,0.00985117,0.00156981,7.00177e-05,-0.000133558,-0.0013487,0,0.00971761,0.000221103,0.00550523,0.034481,-7.00192e-05,3.57635,0.000460998,0.00288737,-5.86327e-06,0.895529,0.894318,0.892641,0.893857
27630590236,-5.88692e-05,0.0098401,0.00318114,5.88692e-05,-0.00011255,-0.00296786,0,0.00972754,0.000213287,0.0111457,0.0344402,-5.88636e-05,3.57634,0.000933323,0.00288395,-4.92913e-06,0.895527,0.894554,0.892643,0.89362
27630598203,-6.38286e-05,0.00936777,0.00167065,6.38286e-05,0.000369709,-0.00146518,0,0.00973748,0.00020547,0.00583637,0.0327837,-6.38311e-05,3.57634,0.000488726,0.00274524,-5.34509e-06,0.895457,0.894331,0.892711,0.893842
27630606116,-6.79172e-05,0.0101306,0.00299915,6.79172e-05,-0.000383368,-0.00280134,0,0.00974722,0.000197812,0.0105067,0.0354625,-6.79193e-05,3.57634,0.000879813,0.00296956,-5.68743e-06,0.895568,0.894526,0.892599,0.893646
27630614106,-7.214e-05,0.0100473,0.00152024,7.214e-05,-0.000290235,-0.0013302,0,0.00975709,0.000190046,0.00531019,0.035165,-7.21421e-05,3.57634,0.000444665,0.00294465,-6.04104e-06,0.895555,0.894308,0.89261,0.893863
27630679781,-7.5664e-05,0.0103724,0.00296518,7.5664e-05,-0.000534484,-0.00283869,0,0.00983789,0.000126487,0.0103891,0.0363051,-7.56657e-05,3.57632,0.00086996,0.00304012,-6.3361e-06,0.895598,0.894516,0.892558,0.893646
27630687688,-6.46039e-05,0.0101417,0.00456639,6.46039e-05,-0.000293918,-0.00444765,0,0.00984773,0.000118742,0.015994,0.035494,-6.45983e-05,3.57632,0.00133931,0.0029722,-5.40934e-06,0.895564,0.89475,0.892592,0.893411
27630695635,-6.93642e-05,0.00968978,0.00304913,6.93642e-05,0.000167721,-0.00293808,0,0.0098575,0.000111055,0.010661,0.0339109,-6.93666e-05,3.57631,0.000892733,0.00283963,-5.80862e-06,0.895497,0.894526,0.892657,0.893634
27630703702,-7.46393e-05,0.0108312,0.00409305,7.46393e-05,-0.00096374,-0.00398983,0,0.00986746,0.000103222,0.0143333,0.0379174,-7.46419e-05,3.57631,0.00120024,0.00317513,-6.25037e-06,0.895664,0.89468,0.892489,0.893479
27630711369,-7.79783e-05,0.0106874,0.00262092,7.79783e-05,-0.00081028,-0.00252527,0,0.00987709,9.56484e-05,0.00916259,0.0374047,-7.79799e-05,3.57631,0.000767258,0.0031322,-6.52989e-06,0.895642,0.894463,0.89251,0.893695
27630719637,-8.22144e-05,0.0109082,0.00412737,8.22144e-05,-0.00102094,-0.0040397,0,0.00988724,8.76654e-05,0.0144568,0.0381802,-8.22166e-05,3.57631,0.00121058,0.00319713,-6.88466e-06,0.895674,0.894684,0.892476,0.893473
27630727564,-7.08944e-05,0.00966597,0.00605034,7.08944e-05,-0.000297171,-0.00552065,0,0.0093688,0.000529688,0.0211869,0.0338256,-7.08888e-05,3.57642,0.00177415,0.00283249,-5.93609e-06,0.89552,0.894994,0.892687,0.89322
27630735765,-7.57097e-05,0.00921804,0.00453874,7.57097e-05,0.000145305,-0.00400375,0,0.00936334,0.000534991,0.0158746,0.0322599,-7.57121e-05,3.57642,0.00132931,0.00270138,-6.33999e-06,0.895455,0.894772,0.892753,0.893442
27630743469,-8.21537e-05,0.0107851,0.00471191,8.21537e-05,-0.001427,-0.00417186,0,0.00935814,0.000540048,0.0164929,0.0377594,-8.21569e-05,3.57642,0.00138108,0.0031619,-6.87966e-06,0.895685,0.894798,0.892523,0.893417
27630819897,-8.47401e-05,0.0105248,0.00330493,8.47401e-05,-0.00121747,-0.00271551,0,0.00930737,0.000589417,0.0115567,0.0368354,-8.47414e-05,3.57643,0.000967734,0.00308453,-7.09608e-06,0.895649,0.894594,0.892564,0.893626
27630827567,-7.5794e-05,0.0109369,0.0049346,7.5794e-05,-0.00163466,-0.00434016,0,0.00930221,0.000594436,0.0172829,0.038282,-7.57895e-05,3.57643,0.00144723,0.00320566,-6.34647e-06,0.89571,0.894834,0.892504,0.893387
27630835737,-7.80011e-05,0.00992246,0.00372046,7.80011e-05,-0.000625593,-0.00312083,0,0.00929687,0.000599627,0.0130128,0.0347213,-7.80022e-05,3.57644,0.00108966,0.00290749,-6.53175e-06,0.895561,0.894655,0.892654,0.893566
27630843618,-8.20419e-05,0.00925989,0.00229543,8.20419e-05,3.16309e-05,-0.0016906,0,0.00929152,0.000604828,0.00802364,0.0324048,-8.2044e-05,3.57644,0.000671884,0.00271352,-6.8702e-06,0.895464,0.894447,0.892751,0.893775
27630851642,-8.61783e-05,0.00982518,0.0037232,8.61783e-05,-0.000538966,-0.00311322,0,0.00928621,0.000609987,0.0130415,0.0343923,-8.61804e-05,3.57644,0.00109207,0.00287994,-7.21658e-06,0.895548,0.894657,0.892668,0.893565
27630859457,-7.84317e-05,0.0113606,0.0047999,7.84317e-05,-0.00179416,-0.00409969,0,0.00956647,0.000700209,0.0168068,0.0397713,-7.84278e-05,3.57637,0.00140737,0.00333037,-6.56739e-06,0.895757,0.894799,0.892427,0.893392
27630867535,-8.10174e-05,0.0107135,0.00340578,8.10174e-05,-0.00114338,-0.00269764,0,0.00957007,0.000708148,0.0119101,0.0374924,-8.10187e-05,3.57637,0.000997327,0.00313954,-6.78435e-06,0.895661,0.894594,0.892522,0.893596
27630875578,-7.21351e-05,0.011207,0.0050062,7.21351e-05,-0.00163342,-0.00429023,0,0.00957362,0.00071597,0.0175332,0.0392282,-7.21306e-05,3.57637,0.0014682,0.00328489,-6.04008e-06,0.895734,0.894829,0.892449,0.893361
27630883557,-7.43785e-05,0.010215,0.00377816,7.43785e-05,-0.000637821,-0.00305436,0,0.00957718,0.000723805,0.0132146,0.0357453,-7.43796e-05,3.57637,0.00110657,0.00299324,-6.22841e-06,0.895588,0.894648,0.892595,0.893541
27630891547,-7.6222e-05,0.00882929,0.00451018,7.6222e-05,0.000751455,-0.00377853,0,0.00958074,0.000731653,0.0157909,0.0308924,-7.62229e-05,3.57637,0.0013223,0.00258687,-6.38276e-06,0.895385,0.894755,0.892798,0.893433
27630899559,-6.95619e-05,0.00937878,0.0030775,6.95619e-05,0.000205527,-0.00233801,0,0.0095843,0.000739489,0.0107608,0.0328297,-6.95586e-05,3.57637,0.000901089,0.00274909,-5.8247e-06,0.895466,0.894544,0.892716,0.893643
27630907682,-7.51661e-05,0.00896579,0.00159287,7.51661e-05,0.000622119,-0.000845441,0,0.00958791,0.000747427,0.00556422,0.0313772,-7.51689e-05,3.57637,0.000465937,0.00262747,-6.2945e-06,0.895404,0.894327,0.892777,0.893861
27630915784,-6.40659e-05,0.00959146,0.00314646,6.40659e-05,8.34801e-09,-0.00239119,0,0.00959147,0.000755267,0.0110238,0.0335746,-6.40604e-05,3.57637,0.000923114,0.00281147,-5.36429e-06,0.895496,0.894555,0.892685,0.893632
27630923670,-6.46811e-05,0.0127558,0.00275331,6.46811e-05,-0.0031608,-0.00199024,0,0.00959501,0.000763069,0.00963369,0.0446682,-6.46814e-05,3.57637,0.000806706,0.00374043,-5.41629e-06,0.895961,0.894496,0.89222,0.89369
27630931785,-6.49969e-05,0.0109761,0.0031521,6.49969e-05,-0.00137749,-0.00238105,0,0.00959863,0.000771043,0.0110352,0.0384035,-6.4997e-05,3.57637,0.000924064,0.00321583,-5.44273e-06,0.895698,0.894555,0.892482,0.893631
27630939742,-6.52961e-05,0.00990848,0.00403885,6.52961e-05,-0.000306293,-0.00325999,0,0.00960218,0.000778867,0.0141424,0.0346719,-6.52963e-05,3.57637,0.00118425,0.00290336,-5.46778e-06,0.895542,0.894685,0.892638,0.893501
27630998806,-6.86714e-05,0.0116467,0.00383405,6.86714e-05,-0.00201822,-0.00299735,0,0.00962844,0.000836697,0.0134173,0.0407757,-6.86731e-05,3.57636,0.00112354,0.00341448,-5.75055e-06,0.895795,0.894653,0.892381,0.893529
27631006623,-6.9914e-05,0.0130772,0.00311805,6.9914e-05,-0.00344522,-0.00227362,0,0.00963195,0.000844429,0.0109079,0.0457804,-6.99147e-05,3.57636,0.000913409,0.00383357,-5.85452e-06,0.896005,0.894547,0.892171,0.893634
27631014644,-6.67329e-05,0.0134251,0.00156885,6.67329e-05,-0.00378957,-0.000716625,0,0.00963549,0.00085222,0.00547967,0.0469902,-6.67314e-05,3.57636,0.000458857,0.00393487,-5.58795e-06,0.896055,0.89432,0.89212,0.893861
27631022540,-6.3937e-05,0.0118991,0.00101041,6.3937e-05,-0.00226006,-0.000150341,0,0.00963905,0.000860067,0.00353232,0.0416358,-6.39356e-05,3.57636,0.00029579,0.0034865,-5.35385e-06,0.895831,0.894238,0.892344,0.893942
27631030669,-6.2199e-05,0.0102994,0.00127996,6.2199e-05,-0.000656722,-0.00041201,0,0.00964263,0.000867954,0.00448177,0.0360361,-6.21981e-05,3.57635,0.000375295,0.00301759,-5.20835e-06,0.895596,0.894278,0.892578,0.893902
27631038392,-5.97009e-05,0.00889329,0.00169411,5.97009e-05,0.000793534,-0.00111682,0,0.00968682,0.000577291,0.00593449,0.031116,-5.96997e-05,3.57635,0.000496943,0.00260559,-4.99914e-06,0.895389,0.894337,0.892783,0.89384
27631046573,-5.5606e-05,0.00776767,0.00283364,5.5606e-05,0.00192383,-0.00225635,0,0.0096915,0.000577292,0.00992602,0.0271787,-5.5604e-05,3.57635,0.000831185,0.00227589,-4.65617e-06,0.895224,0.894504,0.892948,0.893673
27631054475,-5.68756e-05,0.00933029,0.0031843,5.68756e-05,0.000365769,-0.002607,0,0.00969605,0.000577292,0.0111476,0.0326673,-5.68762e-05,3.57635,0.000933476,0.0027355,-4.7627e-06,0.895453,0.894555,0.892718,0.893621
27631062560,-5.93244e-05,0.00976151,0.0016399,5.93244e-05,-6.08431e-05,-0.0010626,0,0.00970066,0.000577293,0.00572844,0.0341684,-5.93257e-05,3.57635,0.000479688,0.00286119,-4.96782e-06,0.895516,0.894328,0.892655,0.893848
27631070294,-5.81592e-05,0.00993849,0.00322978,5.81592e-05,-0.000233341,-0.00265248,0,0.00970515,0.000577293,0.0113157,0.034786,-5.81586e-05,3.57635,0.000947559,0.00291291,-4.87009e-06,0.895542,0.894561,0.892629,0.893614
27631078496,-5.94298e-05,0.00979636,0.00163349,5.94298e-05,-8.65322e-05,-0.00105619,0,0.00970983,0.000577294,0.00570564,0.0342862,-5.94305e-05,3.57634,0.000477779,0.00287106,-4.97659e-06,0.89552,0.894326,0.892649,0.893848
27631086455,-5.75145e-05,0.00959179,0.00322214,5.75145e-05,0.000122619,-0.00264484,0,0.00971441,0.000577294,0.011289,0.0335698,-5.75135e-05,3.57634,0.000945319,0.00281107,-4.81607e-06,0.89549,0.89456,0.892679,0.893614
27631145680,-5.947e-05,0.0097292,0.0016232,5.947e-05,1.90306e-05,-0.0010459,0,0.00974823,0.000577298,0.00566959,0.0340529,-5.94709e-05,3.57634,0.000474761,0.00285153,-4.97998e-06,0.895508,0.894322,0.892657,0.893848
27631153586,-5.69835e-05,0.0093021,0.00316719,5.69835e-05,0.000450643,-0.00258989,0,0.00975274,0.000577298,0.0110963,0.0325542,-5.69822e-05,3.57633,0.000929186,0.00272603,-4.77158e-06,0.895445,0.894549,0.892719,0.89362
